{
"type": "FeatureCollection",
"crs": { "type": "name", "properties": { "name": "urn:ogc:def:crs:OGC:1.3:CRS84" } },
                                                                                                                                  
"features": [
{ "type": "Feature", "properties": { "AREA": 0.000000, "PERIMETER": 0.000000, "NAME": "淡水站", "LOC": "原有台鐵淡水站附近" }, "geometry": { "type": "Point", "coordinates": [ 121.44525830818843, 25.167993283329309 ] } },
{ "type": "Feature", "properties": { "AREA": 0.000000, "PERIMETER": 0.000000, "NAME": "紅樹林站", "LOC": "現有外北勢溪附近" }, "geometry": { "type": "Point", "coordinates": [ 121.45895451204616, 25.154114157533648 ] } },
{ "type": "Feature", "properties": { "AREA": 0.000000, "PERIMETER": 0.000000, "NAME": "竹圍站", "LOC": "原有台鐵竹圍站附近" }, "geometry": { "type": "Point", "coordinates": [ 121.45945645181081, 25.136949033211266 ] } },
{ "type": "Feature", "properties": { "AREA": 0.000000, "PERIMETER": 0.000000, "NAME": "關渡站", "LOC": "關渡國小附近近靠原台鐵淡水線" }, "geometry": { "type": "Point", "coordinates": [ 121.46719972493719, 25.125784713139499 ] } },
{ "type": "Feature", "properties": { "AREA": 0.000000, "PERIMETER": 0.000000, "NAME": "忠義站", "LOC": "中央北路四段 (捷運系統北投機廠西側)" }, "geometry": { "type": "Point", "coordinates": [ 121.47312224097033, 25.130750885216592 ] } },
{ "type": "Feature", "properties": { "AREA": 0.000000, "PERIMETER": 0.000000, "NAME": "新北投站", "LOC": "原台鐵新北投站附近" }, "geometry": { "type": "Point", "coordinates": [ 121.50253117138537, 25.136936401898982 ] } },
{ "type": "Feature", "properties": { "AREA": 0.000000, "PERIMETER": 0.000000, "NAME": "北投站", "LOC": "原台鐵北投站址" }, "geometry": { "type": "Point", "coordinates": [ 121.49859115986244, 25.131907048775624 ] } },
{ "type": "Feature", "properties": { "AREA": 0.000000, "PERIMETER": 0.000000, "NAME": "奇岩站", "LOC": "原台鐵淡水線與三合街交叉口" }, "geometry": { "type": "Point", "coordinates": [ 121.50108298243141, 25.125584855497344 ] } },
{ "type": "Feature", "properties": { "AREA": 0.000000, "PERIMETER": 0.000000, "NAME": "唭哩岸站", "LOC": "原台鐵淡水線與東華街２段３００巷交叉口" }, "geometry": { "type": "Point", "coordinates": [ 121.50626481046653, 25.120857945623705 ] } },
{ "type": "Feature", "properties": { "AREA": 0.000000, "PERIMETER": 0.000000, "NAME": "石牌站", "LOC": "原台鐵淡水線與石牌路交叉口" }, "geometry": { "type": "Point", "coordinates": [ 121.5156422848703, 25.114420305321378 ] } },
{ "type": "Feature", "properties": { "AREA": 0.000000, "PERIMETER": 0.000000, "NAME": "明德站", "LOC": "原台鐵淡水線與明德路交叉口" }, "geometry": { "type": "Point", "coordinates": [ 121.51882040916379, 25.109793935885506 ] } },
{ "type": "Feature", "properties": { "AREA": 0.000000, "PERIMETER": 0.000000, "NAME": "芝山站", "LOC": "原台鐵淡水線與福國路交叉口" }, "geometry": { "type": "Point", "coordinates": [ 121.52254228458315, 25.10281102722767 ] } },
{ "type": "Feature", "properties": { "AREA": 0.000000, "PERIMETER": 0.000000, "NAME": "圓山站", "LOC": "原台鐵淡水線與酒泉街交叉口" }, "geometry": { "type": "Point", "coordinates": [ 121.52013178478055, 25.071380222093627 ] } },
{ "type": "Feature", "properties": { "AREA": 0.000000, "PERIMETER": 0.000000, "NAME": "劍潭站", "LOC": "原台鐵淡水線與９６號計劃道路交叉口" }, "geometry": { "type": "Point", "coordinates": [ 121.52496914164325, 25.084236417468603 ] } },
{ "type": "Feature", "properties": { "AREA": 0.000000, "PERIMETER": 0.000000, "NAME": "士林站", "LOC": "原台鐵士林站址" }, "geometry": { "type": "Point", "coordinates": [ 121.52619154203941, 25.093473979666204 ] } },
{ "type": "Feature", "properties": { "AREA": 0.000000, "PERIMETER": 0.000000, "NAME": "民權西路站", "LOC": "原台鐵淡水線與民權西路交叉口" }, "geometry": { "type": "Point", "coordinates": [ 121.51936274027932, 25.06287666536328 ] } },
{ "type": "Feature", "properties": { "AREA": 0.000000, "PERIMETER": 0.000000, "NAME": "雙連站", "LOC": "原台鐵淡水線與民生西路交叉口" }, "geometry": { "type": "Point", "coordinates": [ 121.52070999301617, 25.057646860243686 ] } },
{ "type": "Feature", "properties": { "AREA": 0.000000, "PERIMETER": 0.000000, "NAME": "中山站", "LOC": "原台鐵淡水線與南京西路交叉口" }, "geometry": { "type": "Point", "coordinates": [ 121.52039689994805, 25.052675664748087 ] } },
{ "type": "Feature", "properties": { "AREA": 0.000000, "PERIMETER": 0.000000, "NAME": "台大醫院站", "LOC": "公園路與常德街口" }, "geometry": { "type": "Point", "coordinates": [ 121.51622007732431, 25.041827029154803 ] } },
{ "type": "Feature", "properties": { "AREA": 0.000000, "PERIMETER": 0.000000, "NAME": "動物園站", "LOC": "新光路木柵動物園正門口右側" }, "geometry": { "type": "Point", "coordinates": [ 121.57932507629138, 24.998277485280163 ] } },
{ "type": "Feature", "properties": { "AREA": 0.000000, "PERIMETER": 0.000000, "NAME": "木柵站", "LOC": "木柵路４段與軍功路交叉口附近" }, "geometry": { "type": "Point", "coordinates": [ 121.57317598186138, 24.998253352528319 ] } },
{ "type": "Feature", "properties": { "AREA": 0.000000, "PERIMETER": 0.000000, "NAME": "萬芳社區站", "LOC": "萬芳路南側臨近萬和街口" }, "geometry": { "type": "Point", "coordinates": [ 121.56806667867865, 24.998607713500029 ] } },
{ "type": "Feature", "properties": { "AREA": 0.000000, "PERIMETER": 0.000000, "NAME": "萬芳醫院站", "LOC": "興隆路３段北側警察專科學校附近" }, "geometry": { "type": "Point", "coordinates": [ 121.55802856133455, 24.999504452038678 ] } },
{ "type": "Feature", "properties": { "AREA": 0.000000, "PERIMETER": 0.000000, "NAME": "辛亥站", "LOC": "辛亥站西側臨近萬美街口處" }, "geometry": { "type": "Point", "coordinates": [ 121.55701024355299, 25.005383562847879 ] } },
{ "type": "Feature", "properties": { "AREA": 0.000000, "PERIMETER": 0.000000, "NAME": "麟光站", "LOC": "和平東路底麟光新村西側" }, "geometry": { "type": "Point", "coordinates": [ 121.55882703203746, 25.018523230734029 ] } },
{ "type": "Feature", "properties": { "AREA": 0.000000, "PERIMETER": 0.000000, "NAME": "六張犁站", "LOC": "和平東路與基隆路口附近之和平東路上" }, "geometry": { "type": "Point", "coordinates": [ 121.55305797318086, 25.02384487573309 ] } },
{ "type": "Feature", "properties": { "AREA": 0.000000, "PERIMETER": 0.000000, "NAME": "科技大樓站", "LOC": "復興南路與和平東路口附近之復興南路上" }, "geometry": { "type": "Point", "coordinates": [ 121.54345147194542, 25.025991976476917 ] } },
{ "type": "Feature", "properties": { "AREA": 0.000000, "PERIMETER": 0.000000, "NAME": "大安站", "LOC": "復興南路與信義路交叉口" }, "geometry": { "type": "Point", "coordinates": [ 121.54362610836444, 25.032820573073622 ] } },
{ "type": "Feature", "properties": { "AREA": 0.000000, "PERIMETER": 0.000000, "NAME": "中山國中站", "LOC": "復興北路介於錦州街與民權東路之間" }, "geometry": { "type": "Point", "coordinates": [ 121.54421643863034, 25.06080611270264 ] } },
{ "type": "Feature", "properties": { "AREA": 0.000000, "PERIMETER": 0.000000, "NAME": "南港站", "LOC": "南港火車站旁" }, "geometry": { "type": "Point", "coordinates": [ 121.60763420834741, 25.052178378321742 ] } },
{ "type": "Feature", "properties": { "AREA": 0.000000, "PERIMETER": 0.000000, "NAME": "昆陽站", "LOC": "忠孝東路與向陽路口" }, "geometry": { "type": "Point", "coordinates": [ 121.59302011238633, 25.050188656620318 ] } },
{ "type": "Feature", "properties": { "AREA": 0.000000, "PERIMETER": 0.000000, "NAME": "後山埤站", "LOC": "忠孝東路與永吉路口" }, "geometry": { "type": "Point", "coordinates": [ 121.58200407698278, 25.04427855362805 ] } },
{ "type": "Feature", "properties": { "AREA": 0.000000, "PERIMETER": 0.000000, "NAME": "永春站", "LOC": "虎林街與忠孝東路口" }, "geometry": { "type": "Point", "coordinates": [ 121.57587285864739, 25.040863616679214 ] } },
{ "type": "Feature", "properties": { "AREA": 0.000000, "PERIMETER": 0.000000, "NAME": "市政府站", "LOC": "基隆路與忠孝東路口" }, "geometry": { "type": "Point", "coordinates": [ 121.56525945405652, 25.041178891090372 ] } },
{ "type": "Feature", "properties": { "AREA": 0.000000, "PERIMETER": 0.000000, "NAME": "國父紀念館站", "LOC": "忠孝東路與光復南路交叉口" }, "geometry": { "type": "Point", "coordinates": [ 121.55768894926783, 25.041347467452923 ] } },
{ "type": "Feature", "properties": { "AREA": 0.000000, "PERIMETER": 0.000000, "NAME": "忠孝敦化站", "LOC": "忠孝東路統領商圈附近" }, "geometry": { "type": "Point", "coordinates": [ 121.54965595628079, 25.041494800943635 ] } },
{ "type": "Feature", "properties": { "AREA": 0.000000, "PERIMETER": 0.000000, "NAME": "忠孝復興站", "LOC": "忠孝東路與復興南路交叉口" }, "geometry": { "type": "Point", "coordinates": [ 121.5437939991607, 25.041602162432323 ] } },
{ "type": "Feature", "properties": { "AREA": 0.000000, "PERIMETER": 0.000000, "NAME": "台電大樓站", "LOC": "羅斯福路與師大路交叉口 (古亭國小前)" }, "geometry": { "type": "Point", "coordinates": [ 121.52818732580073, 25.020692681447557 ] } },
{ "type": "Feature", "properties": { "AREA": 0.000000, "PERIMETER": 0.000000, "NAME": "景美站", "LOC": "羅斯福路與景福街交叉口 (景美分局前)" }, "geometry": { "type": "Point", "coordinates": [ 121.54092099212522, 24.993178356596115 ] } },
{ "type": "Feature", "properties": { "AREA": 0.000000, "PERIMETER": 0.000000, "NAME": "頂溪站", "LOC": "永和路與竹林路交口" }, "geometry": { "type": "Point", "coordinates": [ 121.51544988024698, 25.013618645684314 ] } },
{ "type": "Feature", "properties": { "AREA": 0.000000, "PERIMETER": 0.000000, "NAME": "江子翠站", "LOC": "文化路與雙十路交叉口" }, "geometry": { "type": "Point", "coordinates": [ 121.47223676060013, 25.029904942785794 ] } },
{ "type": "Feature", "properties": { "AREA": 0.000000, "PERIMETER": 0.000000, "NAME": "龍山寺站", "LOC": "和平西路三段與康定路交叉口" }, "geometry": { "type": "Point", "coordinates": [ 121.5012208618903, 25.035229130503069 ] } },
{ "type": "Feature", "properties": { "AREA": 0.000000, "PERIMETER": 0.000000, "NAME": "板橋站", "LOC": "文化路與光正街交叉口" }, "geometry": { "type": "Point", "coordinates": [ 121.46288178985706, 25.014297124383749 ] } },
{ "type": "Feature", "properties": { "AREA": 0.000000, "PERIMETER": 0.000000, "NAME": "府中站", "LOC": "台鐵板橋火車站" }, "geometry": { "type": "Point", "coordinates": [ 121.45921891977318, 25.008934844943376 ] } },
{ "type": "Feature", "properties": { "AREA": 0.000000, "PERIMETER": 0.000000, "NAME": "亞東醫院站", "LOC": "南雅南路亞東醫院" }, "geometry": { "type": "Point", "coordinates": [ 121.45264887598304, 24.99858902739739 ] } },
{ "type": "Feature", "properties": { "AREA": 0.000000, "PERIMETER": 0.000000, "NAME": "土城站", "LOC": "土城中正路與和平路交叉口" }, "geometry": { "type": "Point", "coordinates": [ 121.44445157813183, 24.973226019823802 ] } },
{ "type": "Feature", "properties": { "AREA": 0.000000, "PERIMETER": 0.000000, "NAME": "永寧站", "LOC": "土城中央路承天路交叉口" }, "geometry": { "type": "Point", "coordinates": [ 121.43682729636679, 24.96722082392375 ] } },
{ "type": "Feature", "properties": { "AREA": 0.000000, "PERIMETER": 0.000000, "NAME": "大坪林站", "LOC": "北新路與民權路交叉口" }, "geometry": { "type": "Point", "coordinates": [ 121.54136603460383, 24.982913833396587 ] } },
{ "type": "Feature", "properties": { "AREA": 0.000000, "PERIMETER": 0.000000, "NAME": "景安站", "LOC": "景平路與景安路交口" }, "geometry": { "type": "Point", "coordinates": [ 121.50509077818283, 24.993922031757954 ] } },
{ "type": "Feature", "properties": { "AREA": 0.000000, "PERIMETER": 0.000000, "NAME": "新埔站", "LOC": "文化路與民生路交叉口" }, "geometry": { "type": "Point", "coordinates": [ 121.46798702828234, 25.022995948446287 ] } },
{ "type": "Feature", "properties": { "AREA": 0.000000, "PERIMETER": 0.000000, "NAME": "善導寺站", "LOC": "忠孝東路與林森路交叉口" }, "geometry": { "type": "Point", "coordinates": [ 121.52334018858312, 25.044813009018629 ] } },
{ "type": "Feature", "properties": { "AREA": 0.000000, "PERIMETER": 0.000000, "NAME": "小南門站", "LOC": "愛國西路與博愛路交叉口附近" }, "geometry": { "type": "Point", "coordinates": [ 121.51078176424903, 25.0356727786906 ] } },
{ "type": "Feature", "properties": { "AREA": 0.000000, "PERIMETER": 0.000000, "NAME": "中正紀念堂站", "LOC": "羅斯福路與愛國東路交叉口 (中央銀行前)" }, "geometry": { "type": "Point", "coordinates": [ 121.51704931955278, 25.034274270193471 ] } },
{ "type": "Feature", "properties": { "AREA": 0.000000, "PERIMETER": 0.000000, "NAME": "古亭站", "LOC": "羅斯福路與和平東路交叉口" }, "geometry": { "type": "Point", "coordinates": [ 121.52256794084467, 25.026885634859685 ] } },
{ "type": "Feature", "properties": { "AREA": 0.000000, "PERIMETER": 0.000000, "NAME": "忠孝新生站", "LOC": "忠孝東路與新生南路交叉口" }, "geometry": { "type": "Point", "coordinates": [ 121.53291875841309, 25.042354841091846 ] } },
{ "type": "Feature", "properties": { "AREA": 0.000000, "PERIMETER": 0.000000, "NAME": "台北車站站", "LOC": "台鐵火車站對面之忠孝西路地面下" }, "geometry": { "type": "Point", "coordinates": [ 121.51743802464533, 25.046233083441034 ] } },
{ "type": "Feature", "properties": { "AREA": 0.000000, "PERIMETER": 0.000000, "NAME": "西門站", "LOC": "中華路與成都路交叉口" }, "geometry": { "type": "Point", "coordinates": [ 121.5084877335986, 25.042212597086966 ] } },
{ "type": "Feature", "properties": { "AREA": 0.000000, "PERIMETER": 0.000000, "NAME": "南港展覽館站", "LOC": "南港研究院路交叉口北側" }, "geometry": { "type": "Point", "coordinates": [ 121.61762249277861, 25.054565679177607 ] } },
{ "type": "Feature", "properties": { "AREA": 0.000000, "PERIMETER": 0.000000, "NAME": "大直站", "LOC": "北安路139巷口附近" }, "geometry": { "type": "Point", "coordinates": [ 121.5481485598346, 25.080477334160236 ] } },
{ "type": "Feature", "properties": { "AREA": 0.000000, "PERIMETER": 0.000000, "NAME": "西湖站", "LOC": "內湖路一段西湖市場前" }, "geometry": { "type": "Point", "coordinates": [ 121.56721245777933, 25.08216141473812 ] } },
{ "type": "Feature", "properties": { "AREA": 0.000000, "PERIMETER": 0.000000, "NAME": "港墘站", "LOC": "內湖高工前" }, "geometry": { "type": "Point", "coordinates": [ 121.57528311843349, 25.079995003678313 ] } },
{ "type": "Feature", "properties": { "AREA": 0.000000, "PERIMETER": 0.000000, "NAME": "文德站", "LOC": "文德路101 巷口附近、內湖高中前" }, "geometry": { "type": "Point", "coordinates": [ 121.58496851543224, 25.078533106268441 ] } },
{ "type": "Feature", "properties": { "AREA": 0.000000, "PERIMETER": 0.000000, "NAME": "內湖站", "LOC": "金龍路與成功路交叉口附近" }, "geometry": { "type": "Point", "coordinates": [ 121.59420587019456, 25.083505565019742 ] } },
{ "type": "Feature", "properties": { "AREA": 0.000000, "PERIMETER": 0.000000, "NAME": "大湖公園站", "LOC": "成功路五段大湖公園旁" }, "geometry": { "type": "Point", "coordinates": [ 121.60231290704671, 25.083808666388887 ] } },
{ "type": "Feature", "properties": { "AREA": 0.000000, "PERIMETER": 0.000000, "NAME": "葫洲站", "LOC": "康寧路二段181巷口附近" }, "geometry": { "type": "Point", "coordinates": [ 121.6072415457696, 25.072689271218689 ] } },
{ "type": "Feature", "properties": { "AREA": 0.000000, "PERIMETER": 0.000000, "NAME": "東湖站", "LOC": "五分街加油站旁" }, "geometry": { "type": "Point", "coordinates": [ 121.61173723205354, 25.06757795298418 ] } },
{ "type": "Feature", "properties": { "AREA": 0.000000, "PERIMETER": 0.000000, "NAME": "南港軟體園區站", "LOC": "南港經貿園區內" }, "geometry": { "type": "Point", "coordinates": [ 121.61595418159501, 25.059898993896311 ] } },
{ "type": "Feature", "properties": { "AREA": 0.000000, "PERIMETER": 0.000000, "NAME": "海山站", "LOC": "公館溝與裕民路口海山高工旁" }, "geometry": { "type": "Point", "coordinates": [ 121.44887528615256, 24.985548276090551 ] } },
{ "type": "Feature", "properties": { "AREA": 0.000000, "PERIMETER": 0.000000, "NAME": "南京復興站", "LOC": "復興北路與南京東路交叉口(木柵線)" }, "geometry": { "type": "Point", "coordinates": [ 121.5440393359037, 25.052292279431967 ] } },
{ "type": "Feature", "properties": { "AREA": 0.000000, "PERIMETER": 0.000000, "NAME": "萬隆站", "LOC": "羅斯福路與萬隆街交叉口附近" }, "geometry": { "type": "Point", "coordinates": [ 121.53900226954175, 25.00196532519859 ] } },
{ "type": "Feature", "properties": { "AREA": 0.000000, "PERIMETER": 0.000000, "NAME": "公館站", "LOC": "羅斯福路與舟山路交叉口 (台灣大學旁" }, "geometry": { "type": "Point", "coordinates": [ 121.53434703188557, 25.014707482373044 ] } },
{ "type": "Feature", "properties": { "AREA": 0.000000, "PERIMETER": 0.000000, "NAME": "復興崗站", "LOC": "中央北路三段５３巷和原台鐵淡水線交叉口" }, "geometry": { "type": "Point", "coordinates": [ 121.48520813535164, 25.137446811852712 ] } },
{ "type": "Feature", "properties": { "AREA": 0.000000, "PERIMETER": 0.000000, "NAME": "七張站", "LOC": "北新路與寶橋路交叉口" }, "geometry": { "type": "Point", "coordinates": [ 121.54291090576599, 24.975082925897691 ] } },
{ "type": "Feature", "properties": { "AREA": 0.000000, "PERIMETER": 0.000000, "NAME": "新店市公所站", "LOC": "北新路與中華路交叉口 (新店市公所前)" }, "geometry": { "type": "Point", "coordinates": [ 121.54129865593426, 24.967394430808014 ] } },
{ "type": "Feature", "properties": { "AREA": 0.000000, "PERIMETER": 0.000000, "NAME": "新店站", "LOC": "北新路台汽客運總站" }, "geometry": { "type": "Point", "coordinates": [ 121.53761004105192, 24.957871647770428 ] } },
{ "type": "Feature", "properties": { "AREA": 0.000000, "PERIMETER": 0.000000, "NAME": "南勢角站", "LOC": "台鐵中和貨運站" }, "geometry": { "type": "Point", "coordinates": [ 121.50917264645945, 24.990408531519773 ] } },
{ "type": "Feature", "properties": { "AREA": 0.000000, "PERIMETER": 0.000000, "NAME": "永安市場站", "LOC": "永安市場附近" }, "geometry": { "type": "Point", "coordinates": [ 121.51112538697051, 25.002555879534732 ] } },
{ "type": "Feature", "properties": { "AREA": 0.000000, "PERIMETER": 0.000000, "NAME": "行天宮站", "LOC": "民生東路與錦州街間之松江路下方" }, "geometry": { "type": "Point", "coordinates": [ 121.53315637381543, 25.057966034949334 ] } },
{ "type": "Feature", "properties": { "AREA": 0.000000, "PERIMETER": 0.000000, "NAME": "中山國小站", "LOC": "林森北路與新生北路間之民權東路下方" }, "geometry": { "type": "Point", "coordinates": [ 121.52766447228423, 25.062650999595309 ] } },
{ "type": "Feature", "properties": { "AREA": 0.000000, "PERIMETER": 0.000000, "NAME": "台北橋站", "LOC": "三重市重新路一、二段與文化南、北路交叉口兩側" }, "geometry": { "type": "Point", "coordinates": [ 121.49986798026126, 25.062943649795542 ] } },
{ "type": "Feature", "properties": { "AREA": 0.000000, "PERIMETER": 0.000000, "NAME": "菜寮站", "LOC": "三重市重新路三段，中正南路高架橋與光明路之間" }, "geometry": { "type": "Point", "coordinates": [ 121.49113831824579, 25.05964833471943 ] } },
{ "type": "Feature", "properties": { "AREA": 0.000000, "PERIMETER": 0.000000, "NAME": "三重站", "LOC": "三重市褔音街，重陽路一段與重新路四段交會口至河堤道" }, "geometry": { "type": "Point", "coordinates": [ 121.48394655537152, 25.055599499062524 ] } },
{ "type": "Feature", "properties": { "AREA": 0.000000, "PERIMETER": 0.000000, "NAME": "三重國小站", "LOC": "三重市三重國小前之三和路三段" }, "geometry": { "type": "Point", "coordinates": [ 121.49744089647402, 25.069935147639598 ] } },
{ "type": "Feature", "properties": { "AREA": 0.000000, "PERIMETER": 0.000000, "NAME": "三和國中站", "LOC": "三重市三和國中前之三和路四段" }, "geometry": { "type": "Point", "coordinates": [ 121.48634726047003, 25.076807791284711 ] } },
{ "type": "Feature", "properties": { "AREA": 0.000000, "PERIMETER": 0.000000, "NAME": "徐匯中學站", "LOC": "蘆洲市集賢路與中山一路交叉口" }, "geometry": { "type": "Point", "coordinates": [ 121.47961609531843, 25.080741786677233 ] } },
{ "type": "Feature", "properties": { "AREA": 0.000000, "PERIMETER": 0.000000, "NAME": "三民高中站", "LOC": "蘆洲市三民路與復興路口" }, "geometry": { "type": "Point", "coordinates": [ 121.47324093434408, 25.085670389689309 ] } },
{ "type": "Feature", "properties": { "AREA": 0.000000, "PERIMETER": 0.000000, "NAME": "蘆洲站", "LOC": "蘆洲市三民路與中正路交會路口東北側" }, "geometry": { "type": "Point", "coordinates": [ 121.46435733713018, 25.091563669599541 ] } },
{ "type": "Feature", "properties": { "AREA": 0.000000, "PERIMETER": 0.000000, "NAME": "輔大站", "LOC": "新莊市中正路輔仁大學校園東側" }, "geometry": { "type": "Point", "coordinates": [ 121.4358124198163, 25.032768730074899 ] } },
{ "type": "Feature", "properties": { "AREA": 0.000000, "PERIMETER": 0.000000, "NAME": "先嗇宮站", "LOC": "三重市重新路五段與光復路交會口" }, "geometry": { "type": "Point", "coordinates": [ 121.47212279361693, 25.046526870908359 ] } },
{ "type": "Feature", "properties": { "AREA": 0.000000, "PERIMETER": 0.000000, "NAME": "頭前庄站", "LOC": "新莊市中正路近思源路口" }, "geometry": { "type": "Point", "coordinates": [ 121.46162455915299, 25.039607331082763 ] } },
{ "type": "Feature", "properties": { "AREA": 0.000000, "PERIMETER": 0.000000, "NAME": "新莊站", "LOC": "新莊市新莊國中前之中正路" }, "geometry": { "type": "Point", "coordinates": [ 121.45231789675651, 25.036147908704098 ] } },
{ "type": "Feature", "properties": { "AREA": 0.000000, "PERIMETER": 0.000000, "NAME": "松江南京站", "LOC": "松江路與南京東路交叉口" }, "geometry": { "type": "Point", "coordinates": [ 121.5330703647541, 25.052409478910086 ] } },
{ "type": "Feature", "properties": { "AREA": 0.000000, "PERIMETER": 0.000000, "NAME": "小碧潭站", "LOC": "新店機場" }, "geometry": { "type": "Point", "coordinates": [ 121.53529784254448, 24.969554205353429 ] } },
{ "type": "Feature", "properties": { "AREA": 0.000000, "PERIMETER": 0.000000, "NAME": "松山機場站", "LOC": "松山機場(敦化北路340之9號)" }, "geometry": { "type": "Point", "coordinates": [ 121.55163511046537, 25.063104462027724 ] } },
{ "type": "Feature", "properties": { "AREA": 0.000000, "PERIMETER": 0.000000, "NAME": "大橋頭站", "LOC": "民權西路大橋國小旁" }, "geometry": { "type": "Point", "coordinates": [ 121.51284877945064, 25.062922384403794 ] } },
{ "type": "Feature", "properties": { "AREA": 0.000000, "PERIMETER": 0.000000, "NAME": "東門站", "LOC": "金山南路與永康街間之信義路下方(交會站)" }, "geometry": { "type": "Point", "coordinates": [ 121.52832177315837, 25.033927618168107 ] } },
{ "type": "Feature", "properties": { "AREA": 0.000000, "PERIMETER": 0.000000, "NAME": "劍南路站", "LOC": "北安路821巷口附近" }, "geometry": { "type": "Point", "coordinates": [ 121.55560715358951, 25.084898456471532 ] } },
{ "type": "Feature", "properties": { "AREA": 0.000000, "PERIMETER": 0.000000, "NAME": "迴龍站", "LOC": "新莊市中正路與中山路交會口，省立樂生療養院前" }, "geometry": { "type": "Point", "coordinates": [ 121.41266279325667, 25.022517157057685 ] } },
{ "type": "Feature", "properties": { "AREA": 0.000000, "PERIMETER": 0.000000, "NAME": "丹鳳站", "LOC": "新莊市中正路與民安路交會口" }, "geometry": { "type": "Point", "coordinates": [ 121.42269907252012, 25.028921091574237 ] } },
{ "type": "Feature", "properties": { "AREA": 0.000000, "PERIMETER": 0.000000, "NAME": "台北101\/世貿站", "LOC": "信義路世貿中心旁" }, "geometry": { "type": "Point", "coordinates": [ 121.56349009453886, 25.032979479154786 ] } },
{ "type": "Feature", "properties": { "AREA": 0.000000, "PERIMETER": 0.000000, "NAME": "大安森林公園站", "LOC": "信義路三段大安森林公園內(建國南路與新生南路間,經濟" }, "geometry": { "type": "Point", "coordinates": [ 121.53530802843143, 25.033535251072948 ] } },
{ "type": "Feature", "properties": { "AREA": 0.000000, "PERIMETER": 0.000000, "NAME": "信義安和站", "LOC": "信義安和路口" }, "geometry": { "type": "Point", "coordinates": [ 121.55323253075674, 25.033150042546502 ] } },
{ "type": "Feature", "properties": { "AREA": 0.000000, "PERIMETER": 0.000000, "NAME": "象山站", "LOC": "松仁路與信義路五段91巷間" }, "geometry": { "type": "Point", "coordinates": [ 121.57066633691178, 25.032793324340407 ] } },
{ "type": "Feature", "properties": { "AREA": 0.000000, "PERIMETER": 0.000000, "NAME": "南京復興站", "LOC": "復興北路與南京東路交叉口(松山線)" }, "geometry": { "type": "Point", "coordinates": [ 121.54357686109257, 25.05186980610506 ] } },
{ "type": "Feature", "properties": { "AREA": 0.000000, "PERIMETER": 0.000000, "NAME": "松江南京站", "LOC": "松江路與南京東路交叉口(松山線)" }, "geometry": { "type": "Point", "coordinates": [ 121.53304925954896, 25.052024514344058 ] } },
{ "type": "Feature", "properties": { "AREA": 0.000000, "PERIMETER": 0.000000, "NAME": "松山站", "LOC": "臺鐵松山站前八德路4段下方" }, "geometry": { "type": "Point", "coordinates": [ 121.5777333923765, 25.050001706485329 ] } },
{ "type": "Feature", "properties": { "AREA": 0.000000, "PERIMETER": 0.000000, "NAME": "南京三民站", "LOC": "南京東路5段與三民路口" }, "geometry": { "type": "Point", "coordinates": [ 121.56439688284043, 25.051436320911929 ] } },
{ "type": "Feature", "properties": { "AREA": 0.000000, "PERIMETER": 0.000000, "NAME": "台北小巨蛋站", "LOC": "台北小巨蛋西北側\r\n臺北小巨蛋北側" }, "geometry": { "type": "Point", "coordinates": [ 121.55200315528761, 25.051647242186281 ] } },
{ "type": "Feature", "properties": { "AREA": 0.000000, "PERIMETER": 0.000000, "NAME": "北門站", "LOC": "塔城街\r\n塔城街" }, "geometry": { "type": "Point", "coordinates": [ 121.51027864591133, 25.049294237623901 ] } },
{ "type": "Feature", "properties": { "AREA": 0.000000, "PERIMETER": 0.000000, "NAME": "中山站", "LOC": "原台鐵淡水線與南京西路交叉口(松山線)" }, "geometry": { "type": "Point", "coordinates": [ 121.52039689994805, 25.052675664748087 ] } },
{ "type": "Feature", "properties": { "AREA": 0.000000, "PERIMETER": 0.000000, "NAME": "頂埔站", "LOC": "約在新北市土城區中央路四段53號(鴻海精密工業公司前)" }, "geometry": { "type": "Point", "coordinates": [ 121.41888150334998, 24.95943269330898 ] } }
]
}
